{
  "parks": [
    {
      "id": 1,
      "name": "Beach Park",
      "email": "atendimento@beachpark.com.br",
      "address": {
        "street": "Rua Porto das Dunas",
        "suite": "2734",
        "state": "CE",
        "neighborhood": "Porto das Dunas",
        "city": "Aquiraz",
        "zipcode": "61700-000",
        "geo": {
          "lat": "-3.8438855578813733",
          "lng": "-38.39056982161427"
        }
      },
      "time": {
        "openingTime": "11h",
        "closingTime": "17h"
      },
      "ticketPrice": "R$ 255,00",
      "phone": "(85) 4012-3000",
      "parkWebsite": "https://www.beachpark.com.br/mobile/pt/",
      "ticketWebsite": "https://ingresso.beachpark.com.br/",
      "image": "https://img.r7.com/images/2015/12/24/1hxiwrr3ng_8mq6jr2w8y_file.jpg?dimensions=771x420&no_crop=true",
      "logo": "https://scontent.ffln2-3.fna.fbcdn.net/v/t39.30808-6/286665501_10158310704011945_5191307580729149271_n.jpg?_nc_cat=109&ccb=1-7&_nc_sid=a2f6c7&_nc_eui2=AeHxUNYtctcSxo45uOSVr58athTXFrovFYe2FNcWui8Vhy4f3T7aN0Z_mXu2H9Y8H7NtdcyGEs1UraeoLv-m2rlY&_nc_ohc=vXWKmdIsuN8AX8Xazkl&_nc_ht=scontent.ffln2-3.fna&oh=00_AfA_flJNUDjU6lNK3zo9y-5zd7_CK5ja9HhifKGkFSt2_Q&oe=64F53CD1",
      "youtubeVideoId": "oTwB8NA17hg",
      "facebookUsername": "BeachParkBrasil",
      "instagramUsername": "beachpark",
      "twitterUsername": "beachpark"
    },
    {
      "id": 2,
      "name": "Beto Carrero World",
      "email": "suporteonline@betocarrero.com.br",
      "address": {
        "street": "R. Inácio Francisco de Souza",
        "suite": "1597",
        "state": "SC",
        "neighborhood": "Praia de Armação",
        "city": "Penha",
        "zipcode": "88385-000",
        "geo": { 
          "lat": "-26.79918708873949",
          "lng": "-48.61403463868378"
        }
      },
      "time": {
        "openingTime": "10h",
        "closingTime": "19h"
      },
      "ticketPrice": "R$ 109,90",
      "phone": "+55 47 3261-2222",
      "parkWebsite": "https://www.betocarrero.com.br/",
      "ticketWebsite": "https://www.betocarrero.com.br/passaportes",
      "image": "https://media.tacdn.com/media/attractions-splice-spp-674x446/06/71/29/3d.jpg",
      "logo": "https://d353vpubtzx8k9.cloudfront.net/imagens/logo30-1679313421.png",
      "youtubeVideoId": "dYXoJnbnBsY",
      "facebookUsername": "betocarreroworld",
      "instagramUsername": "betocarrero",
      "twitterUsername": "betocarrero"
    },
    {
      "id": 3,
      "name": "Hopi Hari",
      "email": "fale@hopiharicorp.com.br",
      "address": {
        "street": "Rodovia dos Bandeirantes",
        "suite": "km 72",
        "state": "SP",
        "neighborhood": "Vinhedo",
        "city": "Vinhedo",
        "zipcode": "13013-082",
        "geo": {
          "lat": "-23.09705203313467",
          "lng": "-47.008334158379355"
        }
      },
      "time": {
        "openingTime": "11h",
        "closingTime": "19h"
      },
      "ticketPrice": "R$ 119,90",
      "phone": "(011) 4290-0333",
      "parkWebsite": "https://www.hopihari.com.br/",
      "ticketWebsite": "https://www.hopihari.com.br/calendario",
      "image": "https://i0.statig.com.br/hopihari/img/Montezum-3-1-min.jpg",
      "logo": "https://scontent.ffln2-3.fna.fbcdn.net/v/t1.6435-9/35235253_1710930508960073_6562772408393007104_n.png?_nc_cat=104&ccb=1-7&_nc_sid=174925&_nc_eui2=AeEKac5grYIHCUCRz0MSTyZO01IxmVEdaD_TUjGZUR1oP-kf7429pr8yCZuHXsI5XjY_vUYgI9nA_x1MfXe5fnRd&_nc_ohc=iYPtuXfZCGIAX9bmTpd&_nc_ht=scontent.ffln2-3.fna&oh=00_AfCd43hgjCvATJnXDerBKaN1sONnEQlTSuGhMJ7LBKiPuw&oe=65185512",
      "youtubeVideoId": "ul90ghpmLsI",
      "facebookUsername": "hopihari",
      "instagramUsername": "hopihari",
      "twitterUsername": "hopihari"
    },
    {
      "id": 4,
      "name": "Mirabilandia",
      "email": "sac@mirabilandia.com.br",
      "address": {
        "street": "Av. Prof. Andrade Bezerra",
        "suite": "1285",
        "state": "PE",
        "neighborhood": "Salgadinho",
        "city": "Olinda",
        "zipcode": "53110-110",
        "geo": {
          "lat": "-8.031749200542246",
          "lng": "-34.873917461373715"
        }
      },
      "time": {
        "openingTime": "14h",
        "closingTime": "20h"
      },
      "ticketPrice": "R$ 60,00",
      "phone": "81-3366-2000",
      "parkWebsite": "https://mirabilandia.com.br/",
      "ticketWebsite": "https://loja.mirabilandia.com.br/",
      "image": "https://i0.wp.com/universodosparques.com.br/wp-content/uploads/2022/09/mirabilandia-wave-swinger.jpg?fit=702%2C390&ssl=1",
      "logo": "https://mirabilandia.com.br/wp-content/themes/2018/images/logo-mirabilandia.png",
      "youtubeVideoId": "6hAdGDCQteY",
      "facebookUsername": "MirabilandiaBrasil",
      "instagramUsername": "mirabilandiape",
      "twitterUsername": "MirabilandiaPE"
    }
  ]
}
